[{"id":"2b090f74-f44c-47a9-89a9-4d7b19b1c530","createdAt":"2024-03-07 13:42:56.984389+00","name":"Absolute Qi Acupuncture and Wellness Center","typeOfPlace":"Acupuncture","invisible":false,"website":"https:\/\/www.absoluteqi.com\/acupuncture\/\r","phone":"7322279991","image":null,"reviews":"{}","streetAddress":"710 Easton Ave","city":"Somerset","zip":"08873","state":"NJ","long":"-74.476162","lat":"40.508101"},{"id":"4134f8c5-4031-4e35-889d-c3a83f51ad1f","createdAt":"2024-03-07 13:42:57.062504+00","name":"Acupuncture Center of New Jersey","typeOfPlace":"Acupuncture","invisible":false,"website":"https:\/\/www.acupuncturecenterofnj.com\/","phone":"9739842800","image":null,"reviews":"{}","streetAddress":"40 Franklin St","city":"Morristown","zip":"07960","state":"NJ","long":"-74.472878","lat":"40.792422"},{"id":"22007d04-462d-47eb-b4be-b8669bb01a0e","createdAt":"2024-03-07 13:42:57.121723+00","name":"Acupuncture Park, Edison","typeOfPlace":"Acupuncture","invisible":false,"website":"https:\/\/www.acunj.com\/\r","phone":"7327540392","image":null,"reviews":"{}","streetAddress":"402 Main St","city":"Metuchen","zip":"08840","state":"NJ","long":"-74.360859","lat":"40.541465"},{"id":"0de55583-cf25-4f8c-b154-60ba544881b9","createdAt":"2024-03-07 13:42:57.180451+00","name":"Golden Point Acupuncture","typeOfPlace":"Acupuncture","invisible":false,"website":"https:\/\/goldenpointac.com\/index.html\r","phone":"7326625209","image":null,"reviews":"{}","streetAddress":"3 NJ-27","city":"Edison","zip":"08820","state":"NJ","long":"-74.34528","lat":"40.554728"},{"id":"c9d65af4-f084-49c4-8e6e-ba939b1f33b6","createdAt":"2024-03-07 13:42:57.262583+00","name":"Holmdel Acupuncture & Herbal Medicine Center","typeOfPlace":"Acupuncture","invisible":false,"website":"https:\/\/holmdelacupuncture.com\/\r","phone":"7328884910","image":null,"reviews":"{}","streetAddress":"721 N Beers St","city":"Holmdel","zip":"07733","state":"NJ","long":"-74.193314","lat":"40.405754"},{"id":"bcfdbef1-8b87-4e0e-be39-4564aebccfe2","createdAt":"2024-03-07 13:42:57.358273+00","name":"NJ Acupuncture Center of Jersey City","typeOfPlace":"Acupuncture","invisible":false,"website":"https:\/\/www.njacupuncturecenter.com\/\r","phone":"2016680343","image":null,"reviews":"{}","streetAddress":"550 Newark Ave","city":"Jersey City","zip":"07306","state":"NJ","long":"-74.055713","lat":"40.731318"},{"id":"827addaf-2114-4311-8094-14c0f94aa5ad","createdAt":"2024-03-07 13:42:57.416273+00","name":"Old Bridge Acupuncture and Wellness, LLC","typeOfPlace":"Acupuncture","invisible":false,"website":"https:\/\/oldbridgeacupuncture.com\/\r","phone":"7329525944","image":null,"reviews":"{}","streetAddress":"40 NJ-34","city":"Old Bridge","zip":"08857","state":"NJ","long":"-74.298685","lat":"40.433405"},{"id":"653fa9b0-4b56-40a3-99f5-82f014cb063a","createdAt":"2024-03-07 13:42:57.480485+00","name":"Seven Point Wellness NJ Acupuncture","typeOfPlace":"Acupuncture","invisible":false,"website":"https:\/\/www.sevenpointwellness.com\/\r","phone":"9172101063","image":null,"reviews":"{}","streetAddress":"187 Millburn Ave","city":"Millburn","zip":"07041","state":"NJ","long":"-74.296156","lat":"40.723199"},{"id":"34c1a919-6cc2-479d-88eb-5871928be97d","createdAt":"2024-03-07 13:42:57.568586+00","name":"Advancing Opportunities","typeOfPlace":"Assistive Technology Evaluation","invisible":false,"website":"https:\/\/advopps.org\/\r","phone":"6098824182","image":null,"reviews":"{}","streetAddress":"610 Beverly Rancocas Rd","city":"Willingboro","zip":"08046","state":"NJ","long":"-74.875738","lat":"40.012533"},{"id":"9ebdd689-f7f7-44c4-95b7-92cbae8cd526","createdAt":"2024-03-07 13:42:57.626801+00","name":"Community Access Unlimited","typeOfPlace":"Assistive Technology Evaluation","invisible":false,"website":"https:\/\/www.caunj.org\/\r","phone":"9083543040","image":null,"reviews":"{}","streetAddress":"80 West Grand Street","city":"Elizabeth","zip":"07202","state":"NJ","long":"-74.2196717","lat":"40.6655467"},{"id":"94683343-e1bd-4a75-a62a-b9bc31a8452c","createdAt":"2024-03-07 13:42:57.68268+00","name":"TCNJ Center for Assistive Technology","typeOfPlace":"Assistive Technology Evaluation","invisible":false,"website":"https:\/\/caties.tcnj.edu\/\r","phone":"6097713016","image":null,"reviews":"{}","streetAddress":"2000 Pennington Rd","city":"Ewing","zip":"08628-0718","state":"NJ","long":"-74.777729","lat":"40.268891"},{"id":"67f16dfd-478b-447e-b6b3-ced9d5804044","createdAt":"2024-03-07 13:42:57.77133+00","name":"Awaken The Mind Neurofeedback","typeOfPlace":"Biofeedback therapy","invisible":false,"website":"https:\/\/www.awakenthemindnj.com\/\r","phone":"2012137416","image":null,"reviews":"{}","streetAddress":"401 Hamburg Turnpike","city":"Wayne","zip":"07470","state":"NJ","long":"-74.210385","lat":"40.950558"},{"id":"bd40fa32-02ec-49fa-88e5-8ef811ea33ae","createdAt":"2024-03-07 13:42:57.826683+00","name":"Avita Integrative Care LLC","typeOfPlace":"Biofeedback therapy","invisible":false,"website":"https:\/\/avitaicare.com\/\r","phone":"20184462942","image":null,"reviews":"{}","streetAddress":"440 West Street","city":"Fort Lee","zip":"07024","state":"NJ","long":"-73.9718","lat":"40.858979"},{"id":"59061d18-ec51-4b55-be8b-17a69724e9b9","createdAt":"2024-03-07 13:42:57.883237+00","name":"Central Jersey Neurofeedback, LLC","typeOfPlace":"Biofeedback therapy","invisible":false,"website":"https:\/\/centraljerseyneurofeedback.com\/\r","phone":"9089488569","image":null,"reviews":"{}","streetAddress":"1390 Valley Rd","city":"Stirling","zip":"07980","state":"NJ","long":"-74.498376","lat":"40.667703"},{"id":"b8c37adb-ab90-462b-8949-d636f882ba3e","createdAt":"2024-03-07 13:42:57.973101+00","name":"Jill Broderick MS, OTR, BCB","typeOfPlace":"Biofeedback therapy","invisible":false,"website":"https:\/\/www.jillbroderick.com\/\r","phone":"9738280538","image":null,"reviews":"{}","streetAddress":"37 Kings Road Suite 101","city":"Madison","zip":"07940","state":"NJ","long":"-74.416834","lat":"40.75841"},{"id":"9033abcc-cc80-4036-9267-60a510516ca3","createdAt":"2024-03-07 13:42:58.031038+00","name":"Park Avenue Psychotherapy & Neurofeedback Associates","typeOfPlace":"Biofeedback therapy","invisible":false,"website":"https:\/\/www.miriamadlertherapy.com\/\r","phone":"9738150777","image":null,"reviews":"{}","streetAddress":"777 Passaic Ave","city":"Clifton","zip":"07012","state":"NJ","long":"-74.146698","lat":"40.835738"},{"id":"ff16f73f-58bf-4300-9520-7514b55005c4","createdAt":"2024-03-07 13:42:58.08892+00","name":"Princeton Biofeedback Center","typeOfPlace":"Biofeedback therapy","invisible":false,"website":"https:\/\/princetonbiofeedback.com\/\r","phone":"6099240782","image":null,"reviews":"{}","streetAddress":"317 Mt Lucas Rd","city":"Princeton","zip":"08540","state":"NJ","long":"-74.659326","lat":"40.371369"},{"id":"aa96bab0-7f94-45a8-ad1b-793799b6baee","createdAt":"2024-03-07 13:42:58.183927+00","name":"The New Jersey Institute For Neurofeedback","typeOfPlace":"Biofeedback therapy","invisible":false,"website":"https:\/\/njneurofeedback.com\/\r","phone":"7325430999","image":null,"reviews":"{}","streetAddress":"825 Georges Rd","city":"North Brunswick Township","zip":"08902","state":"NJ","long":"-74.456272","lat":"40.465278"},{"id":"0bf4fb97-74a7-49a7-906e-9278733c9294","createdAt":"2024-03-07 13:42:58.246239+00","name":"The New Jersey Institute For Neurofeedback","typeOfPlace":"Biofeedback therapy","invisible":false,"website":"https:\/\/njneurofeedback.com\/\r","phone":"7325430999","image":null,"reviews":"{}","streetAddress":"2 Princess Rd","city":"Lawrenceville","zip":"08648","state":"NJ","long":"-74.711893","lat":"40.284203"},{"id":"0c519626-551a-45cd-b29c-d89bba7b467f","createdAt":"2024-03-07 13:42:58.319618+00","name":"BIANJ CARES Program","typeOfPlace":"Biofeedback therapy","invisible":false,"website":"https:\/\/www.bianj.org\/\r","phone":"7327450200","image":null,"reviews":"{}","streetAddress":"825 Georges Road","city":"North Brunswick","zip":"08902","state":"NJ","long":"-74.456272","lat":"40.465278"},{"id":"c40af409-0d18-4aee-a9b9-8578d790dc2e","createdAt":"2024-03-07 13:42:58.381404+00","name":"Opportunity Project","typeOfPlace":"Biofeedback therapy","invisible":false,"website":"https:\/\/www.opportunityproject.org\/\r","phone":"9733269000","image":null,"reviews":"{}","streetAddress":"385 Prospect Avenue","city":"Hackensack","zip":"07601","state":"NJ","long":"-74.052522","lat":"40.895828"},{"id":"aa8763ac-b538-4bd0-8768-d5891ed57d65","createdAt":"2024-03-07 13:42:58.451529+00","name":"A Kneaded Vacation Massage & Wellness","typeOfPlace":"Craniosacral Therapy","invisible":false,"website":"https:\/\/akneadedvacation.com\/\r","phone":"7323288577","image":null,"reviews":"{}","streetAddress":"258 Broad St","city":"Red Bank","zip":"07701","state":"NJ","long":"-74.064915","lat":"40.343342"},{"id":"c7fde37a-df72-4328-8639-8d505671a937","createdAt":"2024-03-07 13:42:58.510749+00","name":"Alyssa Frey CST, OT","typeOfPlace":"Craniosacral Therapy","invisible":false,"website":"https:\/\/www.alyssafreycst.com\/\r","phone":"9175388850","image":null,"reviews":"{}","streetAddress":"509 Valley St","city":"Maplewood","zip":"07040","state":"NJ","long":"-74.269499","lat":"40.734229"},{"id":"14081575-e628-4319-a64c-20bbddd3158d","createdAt":"2024-03-07 13:42:58.592912+00","name":"Atlantic PT Center","typeOfPlace":"Craniosacral Therapy","invisible":false,"website":"https:\/\/atlanticptcenter.com\/\r","phone":"6099180600","image":null,"reviews":"{}","streetAddress":"400 Rt. 130 South","city":"East Windsor","zip":"08520","state":"NJ","long":"-74.538051","lat":"40.274106"},{"id":"0cc7b7e0-dd8f-45e1-875b-3242537c9f85","createdAt":"2024-03-07 13:42:58.654627+00","name":"Balanced Health & Healing","typeOfPlace":"Craniosacral Therapy","invisible":false,"website":"https:\/\/balancedhealthandhealing.com\/\r","phone":"9739600716","image":null,"reviews":"{}","streetAddress":"211 East High Street","city":"Bound Brook","zip":"08805","state":"NJ","long":"-74.530933","lat":"40.563832"},{"id":"c24f594e-8b53-48a7-a132-41d1dfe08c21","createdAt":"2024-03-07 13:42:58.681588+00","name":"Edward Feldman, D.C.","typeOfPlace":"Craniosacral Therapy","invisible":false,"website":"https:\/\/feldmanwellness.com\/\r","phone":"6092521766","image":null,"reviews":"{}","streetAddress":"4418 Route 27","city":"Kingston","zip":"08528","state":"NJ","long":"-74.611964","lat":"40.375941"},{"id":"f6590df7-27f1-4ad9-b69f-9c70e0f27a4a","createdAt":"2024-03-07 13:42:58.739174+00","name":"Find Relief Therapy, LLC","typeOfPlace":"Craniosacral Therapy","invisible":false,"website":"https:\/\/www.findrelieftherapy.com\/\r","phone":"9732407730","image":null,"reviews":"{}","streetAddress":"120 Eagle Rock Ave","city":"East Hanover","zip":"07936","state":"NJ","long":"-74.334974","lat":"40.832645"},{"id":"893ac095-2707-413e-ac66-ac1c9363768b","createdAt":"2024-03-07 13:42:58.796562+00","name":"Gina Russomano CranioSacral Therapy LLC","typeOfPlace":"Craniosacral Therapy","invisible":false,"website":"https:\/\/www.ginarcst.com\/\r","phone":"2015793389","image":null,"reviews":"{}","streetAddress":"42 Fairfield Place","city":"West Caldwell","zip":"07006","state":"NJ","long":"-74.293231","lat":"40.86879"},{"id":"78fa8df4-0db6-468d-b59e-2d90d50c7581","createdAt":"2024-03-07 13:42:58.858776+00","name":"Holistic Healing Center","typeOfPlace":"Craniosacral Therapy","invisible":false,"website":"https:\/\/www.holisticacupuncturenj.com\/\r","phone":"7322526155","image":null,"reviews":"{}","streetAddress":"420 NJ-34","city":"Colts Neck","zip":"07722","state":"NJ","long":"-74.175679","lat":"40.292837"},{"id":"cb98c5f2-2936-42a8-9399-7e2768b6b415","createdAt":"2024-03-07 13:42:58.919412+00","name":"THRIVE Integrative Care Solutions","typeOfPlace":"Craniosacral Therapy","invisible":false,"website":"https:\/\/www.andreawinzer.net\/\r","phone":"7325154411","image":null,"reviews":"{}","streetAddress":"1000 NJ-34","city":"Matawan","zip":"07747","state":"NJ","long":"-74.232113","lat":"40.404037"},{"id":"3d15f522-cf3f-4e06-a0e8-28e53278a9c6","createdAt":"2024-03-07 13:42:58.991318+00","name":"Personalized Support Services","typeOfPlace":"Disability Services","invisible":false,"website":"https:\/\/psstbidotcom.wordpress.com\/\r","phone":"8564396772","image":null,"reviews":"{}","streetAddress":"40 Edgehill Rd","city":"Blairstown","zip":"07825","state":"NJ","long":"-74.9596248","lat":"40.9702697"},{"id":"71a5d3e6-6984-411a-a59c-2cc14bddfc54","createdAt":"2024-03-07 13:42:59.050868+00","name":"Bacharach Institute for Rehabilitation","typeOfPlace":"Driver Rehabilitation Specialists","invisible":false,"website":"https:\/\/www.bacharach.org\/\r","phone":"6097486866","image":null,"reviews":"{}","streetAddress":"1 W Jimmie Leeds Rd","city":"Pomona","zip":"08240","state":"NJ","long":"-74.5285778","lat":"39.47459939"},{"id":"8ad97df7-0292-45b0-9c5e-da2d54753e35","createdAt":"2024-03-07 13:42:59.087154+00","name":"JFK Johnson Rehabilitation Institute*","typeOfPlace":"Driver Rehabilitation Specialists","invisible":false,"website":"https:\/\/www.hackensackmeridianhealth.org\/en\/locations\/hackensack-meridian-jfk-johnson-rehabilitation-institute\r","phone":"7323217056","image":null,"reviews":"{}","streetAddress":"65 James St","city":"Edison","zip":"08820","state":"NJ","long":"-74.350484","lat":"40.556661"},{"id":"e7917ca3-7458-424d-8cdc-a99cd52ee9ae","createdAt":"2024-03-07 13:42:59.145038+00","name":"Kessler Institute for Rehabilitation*","typeOfPlace":"Driver Rehabilitation Specialists","invisible":false,"website":"https:\/\/www.kessler-rehab.com\/\r","phone":"8773222580","image":null,"reviews":"{}","streetAddress":"1199 Pleasant Valley Way","city":"West Orange","zip":"07052","state":"NJ","long":"-74.277058","lat":"40.785683"},{"id":"021d5d5f-1b17-4af0-8470-3fd0410383d4","createdAt":"2024-03-07 13:42:59.219679+00","name":"Moss Rehab-New Jersey","typeOfPlace":"Driver Rehabilitation Specialists","invisible":false,"website":"https:\/\/www.mossrehab.com\/\r","phone":"2158867706","image":null,"reviews":"{}","streetAddress":"135 S. Broad St.","city":"Woodbury","zip":"08096","state":"NJ","long":"-75.155429","lat":"39.83632"},{"id":"6df3eecb-2b6a-4394-9fca-cdd8c9b5fbb8","createdAt":"2024-03-07 13:42:59.292483+00","name":"Shore Rehabilitation Institute","typeOfPlace":"Driver Rehabilitation Specialists","invisible":false,"website":"https:\/\/www.samhsa.gov\/find-help\/national-helpline\r","phone":"7328364504","image":null,"reviews":"{}","streetAddress":"425 Jack Martin Blvd","city":"Brick","zip":"08724","state":"NJ","long":"-74.131499","lat":"40.077002"},{"id":"2ce63d4d-c537-42ae-a450-2c43760b678e","createdAt":"2024-03-07 13:42:59.354967+00","name":"St. Lawrence Rehabilitation Center","typeOfPlace":"Driver Rehabilitation Specialists","invisible":false,"website":"https:\/\/lawrencerehabhospital.com\/\r","phone":"6098969500","image":null,"reviews":"{}","streetAddress":"2381 Lawrenceville Rd","city":"Lawrenceville","zip":"08648","state":"NJ","long":"-74.735285","lat":"40.288224"},{"id":"a0ea7f6e-6014-4c45-bddb-73cbaef17c97","createdAt":"2024-03-07 13:42:59.382194+00","name":"Alexandra Dimant LCSW","typeOfPlace":"Eye Movement Desensitization and Reprocessing Therapy","invisible":false,"website":"https:\/\/www.changethroughinsight.com\/\r","phone":"6466062466","image":null,"reviews":"{}","streetAddress":"116 Magnolia Avenue","city":"Tenafly","zip":"07670","state":"NJ","long":"-73.95955","lat":"40.929294"},{"id":"1238e514-de33-4e3a-9325-591b08c2f830","createdAt":"2024-03-07 13:42:59.44323+00","name":"Edwige Theokas LPC","typeOfPlace":"Eye Movement Desensitization and Reprocessing Therapy","invisible":false,"website":"https:\/\/www.plantingseedscounselingnj.com\/\r","phone":"6095422338","image":null,"reviews":"{}","streetAddress":"4 West Park Avenue","city":"Bordentown","zip":"08505","state":"NJ","long":"-74.72443342","lat":"40.19609149"},{"id":"43525379-3514-45f4-b4d4-2c3888b79a65","createdAt":"2024-03-07 13:42:59.506591+00","name":"Janet Hoffer, DSW, LCSW","typeOfPlace":"Eye Movement Desensitization and Reprocessing Therapy","invisible":false,"website":"https:\/\/drjanethoffer.com\/\r","phone":"9733102117","image":null,"reviews":"{}","streetAddress":"38 Fairway Avenue","city":"West Orange","zip":"07052","state":"NJ","long":"-74.255153","lat":"40.823961"},{"id":"18f3d43b-f661-4da8-9118-55345f243545","createdAt":"2024-03-07 13:42:59.566193+00","name":"Pei-Chen Hsu, LP, PhD","typeOfPlace":"Eye Movement Desensitization and Reprocessing Therapy","invisible":false,"website":"https:\/\/www.therapyden.com\/therapist\/pei-chen-hsu-livingtson-nj\r","phone":"8622929584","image":null,"reviews":"{}","streetAddress":"301 South Livingston Avenue","city":"Livingston","zip":"07039","state":"NJ","long":"-74.313137","lat":"40.785486"},{"id":"83459054-8e05-439f-bf2f-cbe2e5db31f6","createdAt":"2024-03-07 13:42:59.623636+00","name":"Sherry Schwartz, LCSW","typeOfPlace":"Eye Movement Desensitization and Reprocessing Therapy","invisible":false,"website":"https:\/\/www.therapyden.com\/therapist\/sherry-schwartz-nutley-nj\r","phone":"9739311234","image":null,"reviews":"{}","streetAddress":"349 Franklin Ave","city":"Nutley","zip":"07110","state":"NJ","long":"-74.159578","lat":"40.819517"},{"id":"8db27fab-0158-4895-827d-3fc0d250e684","createdAt":"2024-03-07 13:42:59.688461+00","name":"Hudson Eye Physicians & Surgeon","typeOfPlace":"Neuro-Ophthalmology","invisible":false,"website":"https:\/\/hudsoneyemd.com\/\r","phone":"9739129100","image":null,"reviews":"{}","streetAddress":"288 Millburn Ave","city":"Millburn","zip":"07041","state":"NJ","long":"-74.303071","lat":"40.72424"},{"id":"34838e8f-29b3-4145-9e98-b31701a94023","createdAt":"2024-03-07 13:42:59.748955+00","name":"Lekha Gopal, MD","typeOfPlace":"Neuro-Ophthalmology","invisible":false,"website":"https:\/\/www.rwjbh.org\/doctors\/lekha-gopal-md\/\r","phone":"2019916900","image":null,"reviews":"{}","streetAddress":"806 Kearny Ave","city":"Kearny","zip":"07032","state":"NJ","long":"-74.140034","lat":"40.779486"},{"id":"ebc70ea3-8ba5-4b81-a13a-e3108c057f91","createdAt":"2024-03-07 13:42:59.765673+00","name":"Omni Eye Services","typeOfPlace":"Neuro-Ophthalmology","invisible":false,"website":"https:\/\/oomc.com\/omni\/\r","phone":"7327500400","image":null,"reviews":"{}","streetAddress":"485 US-1","city":"Iselin","zip":"08830","state":"NJ","long":"-74.315098","lat":"40.554954"},{"id":"85d957e8-669c-4ac2-88e6-be5c9248fbff","createdAt":"2024-03-07 13:42:59.825204+00","name":"Ophthalmic Physicians of Monmouth","typeOfPlace":"Neuro-Ophthalmology","invisible":false,"website":"http:\/\/www.opmnj.com\/\r","phone":"7327390707","image":null,"reviews":"{}","streetAddress":"733 N Beers Street","city":"Holmdel","zip":"07733","state":"NJ","long":"-74.19112","lat":"40.403793"},{"id":"c70dcda7-03e2-4dba-a24d-79dbb85dc770","createdAt":"2024-03-07 13:42:59.907927+00","name":"Rutgers Health Neuro-Ophthalmology (Larry P. Frohman, MD)","typeOfPlace":"Neuro-Ophthalmology","invisible":false,"website":"https:\/\/www.rwjbh.org\/doctors\/larry-p-frohman-md\/\r","phone":"9739722065","image":null,"reviews":"{}","streetAddress":"90 Bergen St","city":"Newark","zip":"07103","state":"NJ","long":"-74.191242","lat":"40.741621"},{"id":"6188b765-24a9-463a-82b0-a2f8a101a27a","createdAt":"2024-03-07 13:42:59.96618+00","name":"Barry Tannen, O.D.","typeOfPlace":"Neuro-Optometry","invisible":false,"website":"https:\/\/www.eyecareprofessionals.com\/about\/dr-barry-tannen\/\r","phone":"6095815755","image":null,"reviews":"{}","streetAddress":"1777 Kuser Rd.","city":"Hamilton Township","zip":"08610","state":"NJ","long":"-74.690274","lat":"40.205379"},{"id":"55476ea2-2069-4a95-9552-22ae8239d197","createdAt":"2024-03-07 13:43:00.026761+00","name":"Howard A. Sherman, O.D.","typeOfPlace":"Neuro-Optometry","invisible":false,"website":"http:\/\/www.drshermaneyes.com\/\r","phone":"7322471167","image":null,"reviews":"{}","streetAddress":"202 Raritan Ave","city":"Highland Park","zip":"08904","state":"NJ","long":"-74.429943","lat":"40.498278"},{"id":"0734185f-7c2c-4b0c-a01d-5e5c47804541","createdAt":"2024-03-07 13:43:00.091342+00","name":"Eye Care Professionals","typeOfPlace":"Neuro-Optometry","invisible":false,"website":"https:\/\/www.eyecareprofessionals.com\/\r","phone":"6095815755","image":null,"reviews":"{}","streetAddress":"1777 Kuser Rd","city":"Hamilton Township","zip":"08690","state":"NJ","long":"-74.690274","lat":"40.205379"},{"id":"93ed7c8f-d286-448c-a482-35be60beda80","createdAt":"2024-03-07 13:43:00.115649+00","name":"Family Eye Care (Moshe Roth, O.D)","typeOfPlace":"Neuro-Optometry","invisible":false,"website":"https:\/\/www.newjerseyeyesite.com\/\r","phone":"7326792020","image":null,"reviews":"{}","streetAddress":"3111 Rt. 9 North","city":"Old Bridge","zip":"08857","state":"NJ","long":"-74.30260274","lat":"40.43148994"},{"id":"854d24c9-5a86-428f-bd88-47cd794770a2","createdAt":"2024-03-07 13:43:00.173967+00","name":"Focus Center for Vision and Learning","typeOfPlace":"Neuro-Optometry","invisible":false,"website":"https:\/\/www.focusvisioncenter.com\/\r","phone":"7329663839","image":null,"reviews":"{}","streetAddress":"200 NJ-71","city":"Spring Lake","zip":"07762","state":"NJ","long":"-74.041743","lat":"40.143101"},{"id":"c3c46d08-5c91-46e9-9488-21b011a5ec7d","createdAt":"2024-03-07 13:43:00.233127+00","name":"PressVision (Laura Knapp, O.D.)","typeOfPlace":"Neuro-Optometry","invisible":false,"website":"https:\/\/pressvision.com\/our-team\/\r","phone":"2017947977","image":null,"reviews":"{}","streetAddress":"17-10 Fair Lawn Avenue","city":"Fair Lawn","zip":"07410","state":"NJ","long":"-74.55577895","lat":"40.86870037"},{"id":"902956a9-4007-4b3d-803d-e2829d2325c1","createdAt":"2024-03-07 13:43:00.297187+00","name":"SeeClear Associates (Ira Strenger, O.D.)","typeOfPlace":"Neuro-Optometry","invisible":false,"website":"https:\/\/www.seeclearassociates.com\/meet-the-doctors\/\r","phone":"9082773116","image":null,"reviews":"{}","streetAddress":"25 Lindsley Drive","city":"Morristown","zip":"07960","state":"NJ","long":"-74.460912","lat":"40.800341"},{"id":"319ea60d-338e-4dba-afff-e43051a22e32","createdAt":"2024-03-07 13:43:00.357149+00","name":"SeeClear Associates (Ira Strenger, O.D.)","typeOfPlace":"Neuro-Optometry","invisible":false,"website":"https:\/\/www.seeclearassociates.com\/meet-the-doctors\/\r","phone":"9082773116","image":null,"reviews":"{}","streetAddress":"52 Deforest Ave.","city":"Summit","zip":"07901","state":"NJ","long":"-74.360999","lat":"40.718592"},{"id":"3661d090-b2ac-4327-b578-3a7e7cfc1a4a","createdAt":"2024-03-07 13:43:00.417458+00","name":"Alex Strauss, M.D.","typeOfPlace":"Neuro-Psychiatry","invisible":false,"website":"https:\/\/alexstraussmd.com\/\r","phone":"8569833866","image":null,"reviews":"{}","streetAddress":"5000 Sagemore Dr Ste 205","city":"Marlton","zip":"08053","state":"NJ","long":"-74.9184","lat":"39.874199"},{"id":"7d036a28-a213-4a4f-a6bc-2e2454075d86","createdAt":"2024-03-07 13:43:00.477371+00","name":"Amina K. Chowdhury, M.D.","typeOfPlace":"Neuro-Psychiatry","invisible":false,"website":"https:\/\/doctors.hackensackmeridianhealth.org\/provider\/Amina+K.+Chowdhury\/1592718\r","phone":"7329236904","image":null,"reviews":"{}","streetAddress":"300 Second Ave","city":"Long Branch","zip":"07740","state":"NJ","long":"-73.985286","lat":"40.295757"},{"id":"18a0f033-f356-4653-ba43-542360f0db9d","createdAt":"2024-03-07 13:43:00.538866+00","name":"Daniela Ganescu, M.D.","typeOfPlace":"Neuro-Psychiatry","invisible":false,"website":"https:\/\/secure.arogaonline.com\/team\/daniela-ganescu\r","phone":"6092791339","image":null,"reviews":"{}","streetAddress":"168 Franklin Corner Rd","city":"Lawrenceville","zip":"08648","state":"NJ","long":"-74.709438","lat":"40.276826"},{"id":"27a79f46-e2a6-4c8c-af33-da628c809d81","createdAt":"2024-03-07 13:43:00.622352+00","name":"Emmanuel Hriso, M.D.","typeOfPlace":"Neuro-Psychiatry","invisible":false,"website":"https:\/\/doctors.hackensackmeridianhealth.org\/provider\/Emmanuel+Hriso\/1594001\r","phone":"7328551199","image":null,"reviews":"{}","streetAddress":"54 Main St","city":"Woodbridge","zip":"07095","state":"NJ","long":"-74.278258","lat":"40.554783"},{"id":"2a2f3f86-b90b-41cc-ac12-582072f23c76","createdAt":"2024-03-07 13:43:00.63923+00","name":"Howard S. Rudominer, M.D.","typeOfPlace":"Neuro-Psychiatry","invisible":false,"website":"https:\/\/www.doctorrudy.com\/\r","phone":"9737169500","image":null,"reviews":"{}","streetAddress":"9 Springbrook Rd","city":"Livingston","zip":"07039","state":"NJ","long":"-74.306993","lat":"40.78763"},{"id":"0e3e99f0-6ab4-4e8e-9ed6-83d39ed150b1","createdAt":"2024-03-07 13:43:00.698512+00","name":"Kenneth Lichtman, M.D.  Martin Schlakman, M.D.","typeOfPlace":"Neuro-Psychiatry","invisible":false,"website":"https:\/\/www.redbankpsychiatrist.com\/\r","phone":"7325492220","image":null,"reviews":"{}","streetAddress":"1109 Amboy Ave","city":"Edison","zip":"08837","state":"NJ","long":"-74.342076","lat":"40.535581"},{"id":"b406c3b5-8b45-4a5d-8c87-d0cd5b75f7c8","createdAt":"2024-03-07 13:43:00.72426+00","name":"Pierre Ngili, NP","typeOfPlace":"Neuro-Psychiatry","invisible":false,"website":"https:\/\/www.topnpi.com\/nj1316254683\/dr-pierre-ngili\r","phone":"6093968877","image":null,"reviews":"{}","streetAddress":"2550 US Highway 1","city":"Lawrence Township","zip":"08648","state":"NJ","long":"-74.723065","lat":"40.260272"},{"id":"cb36119c-0694-43a1-8d67-5f8fae78e2df","createdAt":"2024-03-07 13:43:00.785844+00","name":"Sarala Mundassery, M.D.","typeOfPlace":"Neuro-Psychiatry","invisible":false,"website":"https:\/\/www.doximity.com\/pub\/sarala-mundassery-md\r","phone":"6093964258","image":null,"reviews":"{}","streetAddress":"314 E State St","city":"Trenton","zip":"08608","state":"NJ","long":"-74.759061","lat":"40.220915"},{"id":"d68fc84e-089c-4c8a-86b3-f56265bac9f4","createdAt":"2024-03-07 13:43:00.845895+00","name":"St Francis Medical Center Neuroscience","typeOfPlace":"Neuro-Psychiatry","invisible":false,"website":"https:\/\/doctor.webmd.com\/practice\/saint-francis-neuroscience-institute-49a5f481-cbab-4f3b-9edd-0c67b763f48e\r","phone":"6095995792","image":null,"reviews":"{}","streetAddress":"601 Hamilton Ave","city":"Trenton","zip":"08629","state":"NJ","long":"-74.741304","lat":"40.216627"},{"id":"3f2ce2c5-735b-4cb0-a17b-debca8b68d64","createdAt":"2024-03-07 13:43:00.918042+00","name":"Waqar Ahmed Siddiqui, M.D.","typeOfPlace":"Neuro-Psychiatry","invisible":false,"website":"https:\/\/doctors.hackensackmeridianhealth.org\/provider\/Waqar+Ahmed+Siddiqui\/1592551\r","phone":"9085616851","image":null,"reviews":"{}","streetAddress":"1550 Park Avenue","city":"South Plainfield","zip":"07080","state":"NJ","long":"-74.4022","lat":"40.599159"},{"id":"1394a2ee-9241-4a5a-a42a-c1f9eb398e2a","createdAt":"2024-03-07 13:43:00.977981+00","name":"Yuliya Dementyeva, M.D.","typeOfPlace":"Neuro-Psychiatry","invisible":false,"website":"https:\/\/doctors.stjosephshealth.org\/provider\/Yuliya+Dementyeva\/2110587\r","phone":"9737543298","image":null,"reviews":"{}","streetAddress":"703 Main St","city":"Paterson","zip":"07503","state":"NJ","long":"-74.165611","lat":"40.902914"},{"id":"43772c53-53d4-42a9-bedb-50db63c759cc","createdAt":"2024-03-07 13:43:01.037226+00","name":"Cambridge Rehabilitation Services","typeOfPlace":"Neuropsychology\/Psychotherapy","invisible":false,"website":"https:\/\/cambridgerehabhc.com\/\r","phone":"2012518555","image":null,"reviews":"{}","streetAddress":"611 N Maple Ave","city":"Ho-Ho-Kus","zip":"07423","state":"NJ","long":"-74.110047","lat":"40.996216"},{"id":"1a2fd80d-a81a-4b08-8416-eecab47a0cb1","createdAt":"2024-03-07 13:43:01.0978+00","name":"Catholic Charities","typeOfPlace":"Neuropsychology\/Psychotherapy","invisible":false,"website":"https:\/\/ccdom.org\/\r","phone":"7323248200","image":null,"reviews":"{}","streetAddress":"319 Maple St","city":"Perth Amboy","zip":"08861","state":"NJ","long":"-74.271893","lat":"40.510392"},{"id":"71858c81-3c07-494d-97f7-874024b74251","createdAt":"2024-03-07 13:43:07.283398+00","name":"Bancroft","typeOfPlace":"Supported Living","invisible":false,"website":"https:\/\/neurorestorative.com\/\r","phone":"8442342389","image":null,"reviews":"{}","streetAddress":"3900 Church Rd","city":"Mount Laurel","zip":"08054","state":"NJ","long":"-74.964953","lat":"39.926265"},{"id":"555c4f39-b130-4d0e-a85a-4d7ed9cb9f0a","createdAt":"2024-03-07 13:43:01.157124+00","name":"Center for Neuropsychology & Psychotherapy","typeOfPlace":"Neuropsychology\/Psychotherapy","invisible":false,"website":"https:\/\/neuropsychandtherapy.com\/\r","phone":"2012522528","image":null,"reviews":"{}","streetAddress":"75 N Maple Ave","city":"Ridgewood","zip":"07451","state":"NJ","long":"-74.11235","lat":"40.980295"},{"id":"8f0be89d-3ade-4c1e-9a33-a36267b7f005","createdAt":"2024-03-07 13:43:01.246094+00","name":"JFK Center For Behavioral Health","typeOfPlace":"Neuropsychology\/Psychotherapy","invisible":false,"website":"https:\/\/www.hackensackmeridianhealth.org\/en\/locations\/center-for-behavioral-health-jfk\r","phone":"7323217189","image":null,"reviews":"{}","streetAddress":"65 James St","city":"Edison","zip":"08820","state":"NJ","long":"-74.350484","lat":"40.556661"},{"id":"a7a85b7f-88e9-41b2-9067-3b44f26abf87","createdAt":"2024-03-07 13:43:01.306182+00","name":"Jonathan H. Mack, Psy.D.","typeOfPlace":"Neuropsychology\/Psychotherapy","invisible":false,"website":"https:\/\/www.drjonathanmack.com\/\r","phone":"6098908844","image":null,"reviews":"{}","streetAddress":"800 Denow Rd Suite S","city":"Pennington","zip":"08534","state":"NJ","long":"-74.782069","lat":"40.301396"},{"id":"52c5c764-5397-487b-af8e-c5b3a52eb301","createdAt":"2024-03-07 13:43:01.365787+00","name":"Head to Head Consultants","typeOfPlace":"Neuropsychology\/Psychotherapy","invisible":false,"website":"https:\/\/www.h2hconsultants.com\/\r","phone":"9087197555","image":null,"reviews":"{}","streetAddress":"15 Mendham Rd","city":"Gladstone","zip":"07934","state":"NJ","long":"-74.664429","lat":"40.720478"},{"id":"565b993e-827d-4ee2-8201-0322d4bfed2b","createdAt":"2024-03-07 13:43:01.437012+00","name":"Mindful Assessments & Psychological Services","typeOfPlace":"Neuropsychology\/Psychotherapy","invisible":false,"website":"https:\/\/mindfulassessment.com\/\r","phone":"9738327777","image":null,"reviews":"{}","streetAddress":"7 Industrial Rd","city":"Pequannock Township","zip":"07440","state":"NJ","long":"-74.282732","lat":"40.943387"},{"id":"aaefa482-61b1-4879-93e3-f1dfee65add5","createdAt":"2024-03-07 13:43:01.499182+00","name":"Morris Psychological Group","typeOfPlace":"Neuropsychology\/Psychotherapy","invisible":false,"website":"https:\/\/morrispsych.com\/\r","phone":"9732579000","image":null,"reviews":"{}","streetAddress":"50 Cherry Hill Rd","city":"Parsippany","zip":"07054","state":"NJ","long":"-74.438227","lat":"40.874015"},{"id":"2e4704ca-c60f-4094-948e-acff670b34dd","createdAt":"2024-03-07 13:43:01.556866+00","name":"Neurobehavioral Rehabilitation Associates","typeOfPlace":"Neuropsychology\/Psychotherapy","invisible":false,"website":"https:\/\/www.neurorehabnj.net\/\r","phone":"7328369770","image":null,"reviews":"{}","streetAddress":"444 Neptune Boulevard","city":"Neptune","zip":"07753","state":"NJ","long":"-74.035489","lat":"40.218616"},{"id":"87f3e81d-4acb-4036-be31-99e3e77b455d","createdAt":"2024-03-07 13:43:01.618404+00","name":"Neuropsychology & Counseling Associates","typeOfPlace":"Neuropsychology\/Psychotherapy","invisible":false,"website":"https:\/\/www.neuronj.com\/\r","phone":"7328405266","image":null,"reviews":"{}","streetAddress":"1683 NJ-88","city":"Brick Township","zip":"08724","state":"NJ","long":"-74.134028","lat":"40.073185"},{"id":"937c310a-5c03-42bc-97a1-6e66506d3a67","createdAt":"2024-03-07 13:43:01.677454+00","name":"NJ Brain Care","typeOfPlace":"Neuropsychology\/Psychotherapy","invisible":false,"website":"https:\/\/www.njbraincare.com\/\r","phone":"9083931533","image":null,"reviews":"{}","streetAddress":"792 Chimney Rock Rd","city":"Martinsville","zip":"08836","state":"NJ","long":"-74.559073","lat":"40.598011"},{"id":"025ae2e7-b651-46b5-8e8e-e7eb361fe2cc","createdAt":"2024-03-07 13:43:01.757749+00","name":"Pathways Neuropsychology Associates","typeOfPlace":"Neuropsychology\/Psychotherapy","invisible":false,"website":"https:\/\/www.pathwaysneuropsychology.com\/\r","phone":"7329302242","image":null,"reviews":"{}","streetAddress":"388 Lakehurst Rd","city":"Toms River","zip":"08755","state":"NJ","long":"-74.213852","lat":"39.959351"},{"id":"07b459ae-9374-49e6-8685-5c238b59fa91","createdAt":"2024-03-07 13:43:01.816965+00","name":"Raritan Bay Behavioral Health Medical Center","typeOfPlace":"Neuropsychology\/Psychotherapy","invisible":false,"website":"https:\/\/www.hackensackmeridianhealth.org\/en\/locations\/carrier-behavioral-health-at-raritan-bay-medical-center\r","phone":"7323604077","image":null,"reviews":"{}","streetAddress":"530 New Brunswick Ave","city":"Old Bridge","zip":"08857","state":"NJ","long":"-74.28086","lat":"40.519137"},{"id":"d1c4a922-f510-4c5b-82c9-f18a29e058cf","createdAt":"2024-03-07 13:43:01.87789+00","name":"RSM Psychology Center","typeOfPlace":"Neuropsychology\/Psychotherapy","invisible":false,"website":"https:\/\/www.princetonneuropsychology.com\/\r","phone":"6098951070","image":null,"reviews":"{}","streetAddress":"281 Witherspoon St","city":"Princeton","zip":"08540","state":"NJ","long":"-74.662576","lat":"40.357463"},{"id":"f904f10f-f11a-47b5-baf4-98af84ef4d26","createdAt":"2024-03-07 13:43:01.953238+00","name":"Rutgers University Behavioral Health Care","typeOfPlace":"Neuropsychology\/Psychotherapy","invisible":false,"website":"https:\/\/patientcare.rutgershealth.org\/services\/behavioral-health#:~:text=University%20Behavioral%20Health%20Care%20(UBHC,mental%20and%20emotional%20well%2Dbeing.\r","phone":"7322356800","image":null,"reviews":"{}","streetAddress":"303 George St","city":"New Brunswick","zip":"08901","state":"NJ","long":"-74.442723","lat":"40.492598"},{"id":"5011c80d-1f8b-41ad-b7ab-710601c83961","createdAt":"2024-03-07 13:43:02.011298+00","name":"Shore Neuropsychology & Behavioral Health","typeOfPlace":"Neuropsychology\/Psychotherapy","invisible":false,"website":"https:\/\/centerforneurowellness.com\/\r","phone":"7329203434","image":null,"reviews":"{}","streetAddress":"220 Jack Martin Blvd","city":"Brick Township","zip":"08724","state":"NJ","long":"-74.12522","lat":"40.077095"},{"id":"38db5e17-5616-4639-bd1e-ea6d7477bd4f","createdAt":"2024-03-07 13:43:02.067914+00","name":"Stress Care of NJ","typeOfPlace":"Neuropsychology\/Psychotherapy","invisible":false,"website":"https:\/\/www.stresscareclinic.com\/\r","phone":"7326794500","image":null,"reviews":"{}","streetAddress":"4122 County Rd 516","city":"Matawan","zip":"07747","state":"NJ","long":"-74.277617","lat":"40.406904"},{"id":"ad1a46d8-676c-4bb3-a07b-66cf460bdf85","createdAt":"2024-03-07 13:43:02.123995+00","name":"The NeuroCognitive & Behavioral Institute","typeOfPlace":"Neuropsychology\/Psychotherapy","invisible":false,"website":"https:\/\/neuroci.com\/\r","phone":"9736010100","image":null,"reviews":"{}","streetAddress":"111 Howard Blvd.","city":"Mt. Arlington","zip":"07856","state":"NJ","long":"-74.635007","lat":"40.901754"},{"id":"25f316ce-c9aa-48bf-887e-88f8a71cb297","createdAt":"2024-03-07 13:43:02.186103+00","name":"The Neuropsychology Center of North Jersey","typeOfPlace":"Neuropsychology\/Psychotherapy","invisible":false,"website":"https:\/\/neuropsychandtherapy.com\/\r","phone":"8552743395","image":null,"reviews":"{}","streetAddress":"659 Eagle Rock Avenue","city":"Suite 4","zip":"Orange","state":"West","long":"-74.260743","lat":"40.810514"},{"id":"c93c1c42-0409-4dce-a889-a4336352cb88","createdAt":"2024-03-07 13:43:02.25836+00","name":"JFK Johnson Rehabilitation Institute","typeOfPlace":"Research Facilities\/Model Systems","invisible":false,"website":"https:\/\/www.hackensackmeridianhealth.org\/en\/locations\/hackensack-meridian-jfk-johnson-rehabilitation-institute\r","phone":"7323217056","image":null,"reviews":"{}","streetAddress":"65 James St","city":"Edison","zip":"08820","state":"NJ","long":"-74.350484","lat":"40.556661"},{"id":"c1986fc0-030b-447c-a05a-1224619e31d6","createdAt":"2024-03-07 13:43:02.272714+00","name":"Kessler Foundation","typeOfPlace":"Research Facilities\/Model Systems","invisible":false,"website":"https:\/\/kesslerfoundation.org\/\r","phone":"9733248362","image":null,"reviews":"{}","streetAddress":"120 Eagle Rock Ave","city":"East Hanover","zip":"07936","state":"NJ","long":"-74.334974","lat":"40.832645"},{"id":"350d035e-e21a-4f65-be33-aa030e79e7db","createdAt":"2024-03-07 13:43:02.334633+00","name":"Rutgers Center for Advanced Human Brain Imaging Research","typeOfPlace":"Research Facilities\/Model Systems","invisible":false,"website":"https:\/\/sites.rutgers.edu\/cahbir\/\r","phone":"9739724400","image":null,"reviews":"{}","streetAddress":"661 Hoes Ln W","city":"Piscataway","zip":"08854","state":"NJ","long":"-74.4688867","lat":"40.5246867"},{"id":"a1911542-a305-401e-b460-4caab95b045c","createdAt":"2024-03-07 13:43:02.393159+00","name":"The Cognitive and Research Center of New Jersey","typeOfPlace":"Research Facilities\/Model Systems","invisible":false,"website":"https:\/\/thecrcnj.com\/\r","phone":"9738504622","image":null,"reviews":"{}","streetAddress":"195 Mountain Ave","city":"Springfield","zip":"07081","state":"NJ","long":"-74.315115","lat":"40.704828"},{"id":"bf235213-7cde-4863-80fc-2ba6d50ddd54","createdAt":"2024-03-07 13:43:02.473311+00","name":"Bancroft NeuroRehab","typeOfPlace":"Vision Therapy","invisible":false,"website":"https:\/\/nrd.gov\/resource\/detail\/14766781\/Bancroft+NeuroRehab#:~:text=Bancroft%20NeuroRehab&text=Delivers%20brain%2Dinjury%20rehabilitation%20services,speech%20therapies%20and%20psychological%20counseling.\r","phone":"8442348387","image":null,"reviews":"{}","streetAddress":"3900 Church Road","city":"Mt. Laurel","zip":"08054","state":"NJ","long":"-74.964953","lat":"39.926265"},{"id":"48fdd2d0-eb26-4522-8978-5fe509f82d70","createdAt":"2024-03-07 13:43:02.533531+00","name":"Helen Hayes Hospital","typeOfPlace":"Vision Therapy","invisible":false,"website":"https:\/\/helenhayeshospital.org\/\r","phone":"8457864000","image":null,"reviews":"{}","streetAddress":"51-55 Rte 9W","city":"West Haverstraw","zip":"10993","state":"NY","long":"-73.985007","lat":"41.204205"},{"id":"5138816d-6440-4237-bc56-baa3ed32591a","createdAt":"2024-03-07 13:43:02.594944+00","name":"JFK Johnson Rehabilitation Institute","typeOfPlace":"Vision Therapy","invisible":false,"website":"https:\/\/www.hackensackmeridianhealth.org\/en\/locations\/hackensack-meridian-jfk-johnson-rehabilitation-institute\r","phone":"7323217056","image":null,"reviews":"{}","streetAddress":"65 James St","city":"Edison","zip":"08820","state":"NJ","long":"-74.350484","lat":"40.556661"},{"id":"5601d111-20ef-4376-9a8f-b9d7910aef87","createdAt":"2024-03-07 13:43:02.676059+00","name":"St Lawrence Rehabilitation Center","typeOfPlace":"Vision Therapy","invisible":false,"website":"https:\/\/lawrencerehabhospital.com\/\r","phone":"6098969500","image":null,"reviews":"{}","streetAddress":"2381 Lawrenceville Rd","city":"Lawrenceville","zip":"08648","state":"NJ","long":"-74.735285","lat":"40.288224"},{"id":"7893be75-b195-4d9f-9873-66ed50efa606","createdAt":"2024-03-07 13:43:02.737105+00","name":"Wills Eye Hospital","typeOfPlace":"Vision Therapy","invisible":false,"website":"https:\/\/www.willseye.org\/\r","phone":"2159283000","image":null,"reviews":"{}","streetAddress":"840 Walnut St","city":"Philadelphia","zip":"19107","state":"PA","long":"-75.155131","lat":"39.947857"},{"id":"1487213d-ccb9-41bf-b187-fd4979730916","createdAt":"2024-03-07 13:43:02.795446+00","name":"Center for Vocational Rehab","typeOfPlace":"Vocational Rehabilitation","invisible":false,"website":"https:\/\/www.cvrus.org\/\r","phone":"7324816300","image":null,"reviews":"{}","streetAddress":"60 Taylor Avenue North","city":"Neptune","zip":"07753-4844","state":"NJ","long":"-74.03374","lat":"40.212026"},{"id":"975a7136-0822-4c7e-9b36-f3fe4b9cf3a8","createdAt":"2024-03-07 13:43:02.855007+00","name":"JFK Johnson Rehabilitation Institute","typeOfPlace":"Vocational Rehabilitation","invisible":false,"website":"https:\/\/www.hackensackmeridianhealth.org\/en\/healthcare-professionals\/rehabilitation-institute\/professional-development\r","phone":"7323217056","image":null,"reviews":"{}","streetAddress":"65 James St","city":"Edison","zip":"08820","state":"NJ","long":"-74.350484","lat":"40.556661"},{"id":"46d6dbaf-7826-4891-a47d-7b86e459a1a3","createdAt":"2024-03-07 13:43:02.913089+00","name":"NJ Division of Vocational Rehabilitation Services  (office locations in every NJ county)","typeOfPlace":"Vocational Rehabilitation","invisible":false,"website":"https:\/\/www.nj.gov\/labor\/career-services\/special-services\/individuals-with-disabilities\/\r","phone":"6092925987","image":null,"reviews":"{}","streetAddress":"1 John Fitch Plaza","city":"Trenton","zip":"08625-0398","state":"NJ","long":"-74.766438","lat":"40.216199"},{"id":"96aa26ea-5551-431b-8b0f-88ad383a5071","createdAt":"2024-03-07 13:43:02.973556+00","name":"VA Newark Regional Office","typeOfPlace":"Vocational Rehabilitation","invisible":false,"website":"https:\/\/www.benefits.va.gov\/newark\/","phone":"8008271000","image":null,"reviews":"{}","streetAddress":"20 Washington Place","city":"Newark","zip":"07102","state":"NJ","long":"-74.170879","lat":"40.742448"},{"id":"14891424-4b26-49fd-ac1a-594f21e98118","createdAt":"2024-03-07 13:43:03.036465+00","name":"Dr. Scott Tzorfas","typeOfPlace":"Neurology","invisible":false,"website":"https:\/\/www.tzorfasneurology.com\/\r","phone":"6096539595","image":null,"reviews":"{}","streetAddress":"160 Shore Road","city":"Somers Point","zip":"08244","state":"NJ","long":"-74.586901","lat":"39.324829"},{"id":"c96c0673-780d-43c3-9ac0-423a4dc3d49b","createdAt":"2024-03-07 13:43:03.051571+00","name":"Dr. Scott Tzorfas","typeOfPlace":"Neurology","invisible":false,"website":"https:\/\/www.tzorfasneurology.com\/\r","phone":"6096539595","image":null,"reviews":"{}","streetAddress":"4 Village Drive","city":"Cape May Court House","zip":"08210","state":"NJ","long":"-74.817974","lat":"39.09234"},{"id":"83544601-0c0d-45d9-b4bf-66a11d3977e1","createdAt":"2024-03-07 13:43:03.068142+00","name":"Neurology Institute of South Jersey (Dr. Jeffrey Boxman)","typeOfPlace":"Neurology","invisible":false,"website":"https:\/\/www.shoremedicalcenter.org\/doctors\/jeffrey-boxman\r","phone":"6097486696","image":null,"reviews":"{}","streetAddress":"436 Chris Gaupp Drive","city":"Galloway","zip":"08205","state":"NJ","long":"-74.543487","lat":"39.466988"},{"id":"51b56c56-e003-4313-a307-ad730278cf44","createdAt":"2024-03-07 13:43:03.130233+00","name":"Neuropscyhology Center LLC (Dr. Marck Chelder)","typeOfPlace":"Neuropsychology","invisible":false,"website":"https:\/\/providers.atlanticare.org\/provider\/Mark+J+Chelder\/1162018\r","phone":"8007837930","image":null,"reviews":"{}","streetAddress":"28 South New York Road","city":"Galloway","zip":"08205","state":"NJ","long":"-74.456691","lat":"39.488713"},{"id":"cf2b655b-8ee0-4eb2-be42-8ca5eb60bcd7","createdAt":"2024-03-07 13:43:03.189267+00","name":"Neurorestorative","typeOfPlace":"Rehab","invisible":false,"website":"https:\/\/providers.atlanticare.org\/provider\/Mark+J+Chelder\/1162018\r","phone":"8007436802","image":null,"reviews":"{}","streetAddress":"115A Leeds Point Road","city":"Galloway","zip":"08215","state":"NJ","long":"-74.4501011","lat":"39.4799428"},{"id":"734ced43-10c4-4633-841b-c01fedac5ee8","createdAt":"2024-03-07 13:43:03.24871+00","name":"Neurorestorative","typeOfPlace":"Rehab","invisible":false,"website":"https:\/\/neurorestorative.com\/\r","phone":"8007436802","image":null,"reviews":"{}","streetAddress":"235 W White Horse Pike","city":"Egg Harbor City","zip":"08215","state":"NJ","long":"-74.5674778","lat":"39.4744397"},{"id":"cf5204ff-e952-43f2-96e1-bdc5fffd83d0","createdAt":"2024-03-07 13:43:03.312368+00","name":"Neurorestorative","typeOfPlace":"Rehab","invisible":false,"website":"https:\/\/neurorestorative.com\/\r","phone":"8007436802","image":null,"reviews":"{}","streetAddress":"300 Rosemarie Drive","city":"Egg Harbor Township","zip":"08234","state":"NJ","long":"-74.5985877","lat":"39.3429505"},{"id":"e2622166-5327-4725-afb1-8f0b5a2ddebf","createdAt":"2024-03-07 13:43:03.384591+00","name":"Neurorestorative","typeOfPlace":"Rehab","invisible":false,"website":"https:\/\/neurorestorative.com\/\r","phone":"8007436802","image":null,"reviews":"{}","streetAddress":"1932 Cologne Avenue","city":"Mays Landing","zip":"08330","state":"NJ","long":"-74.663892","lat":"39.455218"},{"id":"ef69b178-ab20-4d96-86d3-cc5fb847bfa1","createdAt":"2024-03-07 13:43:03.446521+00","name":"Neurorestorative","typeOfPlace":"Rehab","invisible":false,"website":"https:\/\/neurorestorative.com\/\r","phone":"8007436802","image":null,"reviews":"{}","streetAddress":"39 South Laurel Drive","city":"Somers Point","zip":"08244","state":"NJ","long":"-74.6139275","lat":"39.3211389"},{"id":"aa486d99-5f02-4a3d-92e5-79745159b7f1","createdAt":"2024-03-07 13:43:03.505011+00","name":"Neurorestorative","typeOfPlace":"Rehab","invisible":false,"website":"https:\/\/neurorestorative.com\/\r","phone":"8007436802","image":null,"reviews":"{}","streetAddress":"8008 US-130","city":"Delran","zip":"08075","state":"NJ","long":"-74.938194","lat":"40.023574"},{"id":"7d72c71e-ad9a-4fc5-8a93-787b7d2109c4","createdAt":"2024-03-07 13:43:03.586311+00","name":"Neurorestorative","typeOfPlace":"Rehab","invisible":false,"website":"https:\/\/neurorestorative.com\/\r","phone":"8007436802","image":null,"reviews":"{}","streetAddress":"205 Paddock Way","city":"Delran","zip":"08075","state":"NJ","long":"-74.962001","lat":"40.008144"},{"id":"3249d372-d3e5-494d-b84a-a8c78048429e","createdAt":"2024-03-07 13:43:03.646382+00","name":"Neurorestorative","typeOfPlace":"Rehab","invisible":false,"website":"https:\/\/neurorestorative.com\/\r","phone":"8007436802","image":null,"reviews":"{}","streetAddress":"5 Independence Drive","city":"Bordentown","zip":"08505","state":"NJ","long":"-74.697764","lat":"40.140227"},{"id":"c8f0c740-1ca0-4179-bc1c-1d8fbf404a4d","createdAt":"2024-03-07 13:43:03.662968+00","name":"Neurorestorative","typeOfPlace":"Rehab","invisible":false,"website":"https:\/\/neurorestorative.com\/\r","phone":"8007436802","image":null,"reviews":"{}","streetAddress":"617 Devon Avenue","city":"Moorestown","zip":"08857","state":"NJ","long":"-74.9706727","lat":"39.9623673"},{"id":"e0158e07-cc2f-49f1-a44e-21ced4cec22a","createdAt":"2024-03-07 13:43:03.699617+00","name":"Neurorestorative","typeOfPlace":"Rehab","invisible":false,"website":"https:\/\/neurorestorative.com\/\r","phone":"8007436802","image":null,"reviews":"{}","streetAddress":"1501 Larchmont Place","city":"Mount Laurel","zip":"08054","state":"NJ","long":"-74.8804648","lat":"39.9757167"},{"id":"a27959fb-80c9-406a-80ed-605b0e4b3fcc","createdAt":"2024-03-07 13:43:03.758577+00","name":"Neurorestorative","typeOfPlace":"Rehab","invisible":false,"website":"https:\/\/neurorestorative.com\/\r","phone":"8007436802","image":null,"reviews":"{}","streetAddress":"214 Evans Court","city":"Mount Laurel","zip":"08054","state":"NJ","long":"-74.8815842","lat":"39.9727535"},{"id":"9e5d8775-2ee1-49fe-8c9e-50f138c0c80a","createdAt":"2024-03-07 13:43:03.829286+00","name":"Neurorestorative","typeOfPlace":"Rehab","invisible":false,"website":"https:\/\/neurorestorative.com\/\r","phone":"8007436802","image":null,"reviews":"{}","streetAddress":"806 Crystal Avenue","city":"Southhampton","zip":"08088","state":"NJ","long":"-74.723144","lat":"39.977039"},{"id":"19f00808-86a2-44fd-afc6-5c6a376c8c5e","createdAt":"2024-03-07 13:43:03.891925+00","name":"Bancroft","typeOfPlace":"Rehab","invisible":false,"website":"https:\/\/neurorestorative.com\/\r","phone":"8442342389","image":null,"reviews":"{}","streetAddress":"3900 Church Rd","city":"Mount Laurel","zip":"08054","state":"NJ","long":"-74.964953","lat":"39.926265"},{"id":"3b27cd1b-71e8-4d3f-a79d-03cf79aec64a","createdAt":"2024-03-07 13:43:03.957254+00","name":"Virtua Neurology Associates of South Jersey","typeOfPlace":"Neurology","invisible":false,"website":"https:\/\/virtua.org\/locations\/neurology-associates-of-south-jersey-voorhees\r","phone":"6092617600","image":null,"reviews":"{}","streetAddress":"693 Main St","city":"Lumberton","zip":"08048","state":"NJ","long":"-74.80266","lat":"39.976791"},{"id":"a21a288e-cd2f-4598-940d-16a6d5038176","createdAt":"2024-03-07 13:43:04.043485+00","name":"Virtua Neurology","typeOfPlace":"Neurology","invisible":false,"website":"https:\/\/virtua.org\/Services\/Neurology\r","phone":"6098717500","image":null,"reviews":"{}","streetAddress":"101 Burrs Rd","city":"Westhampton","zip":"08060","state":"NJ","long":"-74.805815","lat":"40.018337"},{"id":"43d04b45-233c-44ad-b952-6e6d196456d5","createdAt":"2024-03-07 13:43:04.065408+00","name":"Virtua Neuroscience","typeOfPlace":"Neurology","invisible":false,"website":"https:\/\/virtua.org\/Services\/Neurosciences\r","phone":"8569883444","image":null,"reviews":"{}","streetAddress":"1001 Route 73 North","city":"Marlton","zip":"08053","state":"NJ","long":"-74.940736","lat":"39.908846"},{"id":"3e2e94be-af4e-4785-9657-e59000baf414","createdAt":"2024-03-07 13:43:04.133179+00","name":"MD Anderson Cancer Center at Cooper","typeOfPlace":"Neurology","invisible":false,"website":"https:\/\/www.cooperhealth.org\/services\/md-anderson-cancer-center-cooper\r","phone":"8556322667","image":null,"reviews":"{}","streetAddress":"2 Cooper Plaza","city":"Camden","zip":"08103","state":"NJ","long":"-75.114381","lat":"39.941933"},{"id":"1ddcdfd8-23b2-4b75-86a1-5f4b81cc7e6e","createdAt":"2024-03-07 13:43:04.199013+00","name":"Cooper Neurological Institute","typeOfPlace":"Neurology","invisible":false,"website":"https:\/\/www.cooperhealth.org\/services\/neurological-institute\r","phone":"8563063876","image":null,"reviews":"{}","streetAddress":"3 Cooper Plaza","city":"Camden","zip":"08103","state":"NJ","long":"-75.114132","lat":"39.94082"},{"id":"e43a3ecc-988b-4622-9879-f9f21e273835","createdAt":"2024-03-07 13:43:04.256729+00","name":"Cooper Neurological Institute","typeOfPlace":"Neurology","invisible":false,"website":"https:\/\/www.cooperhealth.org\/services\/neurological-institute\r","phone":"8563063876","image":null,"reviews":"{}","streetAddress":"2339 Rte 70 W","city":"Cherry Hill","zip":"08002","state":"NJ","long":"-75.051169","lat":"39.925167"},{"id":"5331651d-e109-48ed-a571-a2a56ca7e9c8","createdAt":"2024-03-07 13:43:04.320512+00","name":"Clinical Neuropsychology Associates","typeOfPlace":"Neuropsychology","invisible":false,"website":"https:\/\/www.cnaphilly.com\/voorhees-neuropsychologist.cfm\r","phone":"8564359117","image":null,"reviews":"{}","streetAddress":"1000 White Horse Rd","city":"Voorhees Twp","zip":"08043","state":"NJ","long":"-74.988406","lat":"39.849457"},{"id":"849ecb3f-5eb2-4307-9445-cc0cfdbc4904","createdAt":"2024-03-07 13:43:04.338122+00","name":"Neurorestorative","typeOfPlace":"Supported Living","invisible":false,"website":"https:\/\/neurorestorative.com\/\r","phone":"8007436802","image":null,"reviews":"{}","streetAddress":"6025 Browning Avenue","city":"Pennsauken","zip":"08109","state":"NJ","long":"-75.06692","lat":"39.939708"},{"id":"e66d857d-744b-4c73-9bbf-79c6ed1f73ca","createdAt":"2024-03-07 13:43:04.399085+00","name":"Virtua Neurology Associates of South Jersey","typeOfPlace":"Neurology","invisible":false,"website":"https:\/\/virtua.org\/locations\/neurology-associates-of-south-jersey-voorhees\r","phone":"8563350400","image":null,"reviews":"{}","streetAddress":"200-B NJ-73","city":"Voorhees Twp","zip":"08043","state":"NJ","long":"-74.922928","lat":"39.842712"},{"id":"e8ea8bcd-f653-4b28-828a-bb6785ae0a42","createdAt":"2024-03-07 13:43:04.458874+00","name":"Virtua Pediatric Behavioral Health-CASTLE","typeOfPlace":"Pediatric Behavioral Health","invisible":false,"website":"https:\/\/virtua.org\/locations\/pediatric-behavioral-health-castle-berlin\r","phone":"8562463013","image":null,"reviews":"{}","streetAddress":"1000 Atlantic Avenue","city":"Camden","zip":"08104","state":"NJ","long":"-75.108399","lat":"39.928603"},{"id":"d0b643f4-b7de-4869-a4d7-ffc8273f416c","createdAt":"2024-03-07 13:43:04.473784+00","name":"Virtua Pediatric Behavioral Health-CASTLE","typeOfPlace":"Pediatric Behavioral Health","invisible":false,"website":"https:\/\/virtua.org\/locations\/pediatric-behavioral-health-castle-berlin\r","phone":"8563223270","image":null,"reviews":"{}","streetAddress":"100 Townsend Avenue","city":"Berlin","zip":"08009","state":"NJ","long":"-74.920567","lat":"39.781315"},{"id":"d657fa52-c3e7-428e-9fe5-ac0710b51f6d","createdAt":"2024-03-07 13:43:04.535656+00","name":"Care Regional Concussion Center","typeOfPlace":"Neurology","invisible":false,"website":"https:\/\/www.caperegional.com\/services\/concussion-care\/\r","phone":"6094632629","image":null,"reviews":"{}","streetAddress":"215 N. Main Street","city":"Cape May","zip":"08210","state":"NJ","long":"-74.821593","lat":"39.087785"},{"id":"a263d58d-b898-4685-9373-956dc585e1ed","createdAt":"2024-03-07 13:43:04.597479+00","name":"AtlantiCare Phsyician Group","typeOfPlace":"Neurology","invisible":false,"website":"https:\/\/www.atlanticare.org\/location\/atlanticare-physician-group-primary-lgbtq-care-atlantic-city\r","phone":"6094072372","image":null,"reviews":"{}","streetAddress":"2500 English Creek Avenue","city":"Egg Harbor","zip":"08234","state":"NJ","long":"-74.60522","lat":"39.433828"},{"id":"6133bfdf-9ad5-4983-a7c5-bcbc37ebba95","createdAt":"2024-03-07 13:43:04.65806+00","name":"Jersey Institute of Neuroscience","typeOfPlace":"Neurology","invisible":false,"website":"http:\/\/jerseyneuroscience.com\/\r","phone":"6094657780","image":null,"reviews":"{}","streetAddress":"12 Village Dr","city":"Cape May Court House","zip":"08210","state":"NJ","long":"-74.816495","lat":"39.09204"},{"id":"0d68769d-c3eb-4b2d-94f6-6a62a54d84a8","createdAt":"2024-03-07 13:43:04.672816+00","name":"Cooper and Inspira Neurosience","typeOfPlace":"Neurology","invisible":false,"website":"https:\/\/cooperandinspira.org\/\r","phone":"8565070600","image":null,"reviews":"{}","streetAddress":"2950 College Drive","city":"Vineland","zip":"08360","state":"NJ","long":"-75.056033","lat":"39.444052"},{"id":"9f9b059c-f0d3-4e3a-85dd-306a74d32286","createdAt":"2024-03-07 13:43:04.731409+00","name":"Cooper Neurological Institute","typeOfPlace":"Neurology","invisible":false,"website":"https:\/\/www.cooperhealth.org\/services\/neurological-institute\r","phone":"8553063876","image":null,"reviews":"{}","streetAddress":"155 Bridgeton Pike","city":"Mullica Hill","zip":"08062","state":"NJ","long":"-75.217451","lat":"39.74802"},{"id":"d1b55fe7-7c3d-46b5-854f-246103c48810","createdAt":"2024-03-07 13:43:04.78716+00","name":"Inspira Medical Group Neurology","typeOfPlace":"Neurology","invisible":false,"website":"https:\/\/www.inspirahealthnetwork.org\/services-treatments\/neurology-and-neurosurgery\r","phone":"8569940005","image":null,"reviews":"{}","streetAddress":"100 Lexington Road","city":"Woolwich","zip":"08085","state":"NJ","long":"-75.327245","lat":"39.739465"},{"id":"654b62da-9984-4a9b-ba18-1dd026b845d7","createdAt":"2024-03-07 13:43:04.844501+00","name":"Neurobehavioral Wellness Center","typeOfPlace":"Neuropsychology","invisible":false,"website":"https:\/\/www.neurobehavioralwellnesscenter.com\/\r","phone":"8569756279","image":null,"reviews":"{}","streetAddress":"1630 Route 322","city":"Woolwich","zip":"08085","state":"NJ","long":"-75.302722","lat":"39.760466"},{"id":"aa28bbcf-d1b0-42e3-bafc-ebe165e94fad","createdAt":"2024-03-07 13:43:04.917747+00","name":"Virtua Neuroscience","typeOfPlace":"Neurology","invisible":false,"website":"https:\/\/virtua.org\/Services\/Neurosciences\r","phone":"8569883444","image":null,"reviews":"{}","streetAddress":"239 Hurffville - Cross Keys Road","city":"Sewell","zip":"08080","state":"NJ","long":"-75.042743","lat":"39.7226"},{"id":"5b62d784-9713-4190-beaf-a2e166a8917e","createdAt":"2024-03-07 13:43:04.977238+00","name":"Capital Institute of Neurosciences (Dr. Ware and Dr. Witte)","typeOfPlace":"Neurology","invisible":false,"website":"https:\/\/www.capitalhealth.org\/medical-services\/brain-spine\r","phone":"6095377300","image":null,"reviews":"{}","streetAddress":"2 Capital Way","city":"Pennington","zip":"08534","state":"NJ","long":"-74.802963","lat":"40.291991"},{"id":"b9eb5ee8-3cca-4815-9269-3b3eb3a65042","createdAt":"2024-03-07 13:43:05.037395+00","name":"Capital Institute of Neurosciences (Dr. Ware and Dr. Witte)","typeOfPlace":"Neurology","invisible":false,"website":"https:\/\/www.capitalhealth.org\/medical-services\/brain-spine\r","phone":"6095377300","image":null,"reviews":"{}","streetAddress":"1401 Whitehorse-Mercerville Road","city":"Hamilton","zip":"08619","state":"NJ","long":"-74.691213","lat":"40.21352"},{"id":"426a915d-6d9d-42a4-86ce-e05a40cc5519","createdAt":"2024-03-07 13:43:05.098161+00","name":"Jennifer Ogelsby, PhD","typeOfPlace":"Neuropsychology","invisible":false,"website":"https:\/\/www.jenniferoglesbyphd.com\/\r","phone":"6095754561","image":null,"reviews":"{}","streetAddress":"133 Franklin Corner Road","city":"Lawrenceville","zip":"08648","state":"NJ","long":"-74.714339","lat":"40.278688"},{"id":"268ce5b2-66dc-41ff-8468-b993afac578a","createdAt":"2024-03-07 13:43:05.156981+00","name":"Neurorestorative","typeOfPlace":"Supported Living","invisible":false,"website":"https:\/\/neurorestorative.com\/\r","phone":"8007436802","image":null,"reviews":"{}","streetAddress":"115 Laura Avenue","city":"Hamilton","zip":"08619","state":"NJ","long":"-74.70894","lat":"40.261768"},{"id":"2f62c0fc-6a85-4eed-9cfe-653f37d131e9","createdAt":"2024-03-07 13:43:05.235282+00","name":"Neurorestorative","typeOfPlace":"Supported Living","invisible":false,"website":"https:\/\/neurorestorative.com\/\r","phone":"8007436802","image":null,"reviews":"{}","streetAddress":"7112 Town Court South","city":"Lawrenceville","zip":"08648","state":"NJ","long":"-74.6792242","lat":"40.2853392"},{"id":"c2216613-b382-4353-a50f-17820a3bf21c","createdAt":"2024-03-07 13:43:05.251237+00","name":"Dr. Robert H Harris Neuroscience Treatment Center at Jersey Shore University Medical Center","typeOfPlace":"Neurology","invisible":false,"website":"https:\/\/www.hackensackmeridianhealth.org\/en\/Locations\/JSUMC-Stroke-Program\r","phone":"7328973600","image":null,"reviews":"{}","streetAddress":"1945 Route 33","city":"Neptune","zip":"07754","state":"NJ","long":"-74.041297","lat":"40.208939"},{"id":"584504c8-8b1e-492f-80ff-4e1240501d5b","createdAt":"2024-03-07 13:43:05.330972+00","name":"Shore Family Eye Care","typeOfPlace":"Neuro-Optometry","invisible":false,"website":"https:\/\/www.lowvision-nj.com\/\r","phone":"7322230202","image":null,"reviews":"{}","streetAddress":"161 Main St","city":"Manasquan","zip":"08736","state":"NJ","long":"-74.050251","lat":"40.122812"},{"id":"3cb0355c-48e1-4ea6-b89e-d71c3c8987a2","createdAt":"2024-03-07 13:43:05.389307+00","name":"Focus Center for Vision and Learning","typeOfPlace":"Neuro-Optometry","invisible":false,"website":"https:\/\/www.focusvisioncenter.com\/\r","phone":"7329663839","image":null,"reviews":"{}","streetAddress":"200 NJ-71","city":"Spring Lake Heights","zip":"07762","state":"NJ","long":"-74.041743","lat":"40.143101"},{"id":"6910df4d-5592-477e-91eb-d766d34f9890","createdAt":"2024-03-07 13:43:05.449946+00","name":"JFK Rehab (Dr. Suann Chen and Dr. Alphonsa Thomas)","typeOfPlace":"Physiatry","invisible":false,"website":"https:\/\/www.hackensackmeridianhealth.org\/en\/locations\/ocean-university-medical-center\r","phone":"7328364504","image":null,"reviews":"{}","streetAddress":"425 Jack Martin Boulevard","city":"Brick","zip":"08724","state":"NJ","long":"-74.131499","lat":"40.077002"},{"id":"9f984932-c170-4c61-a74c-b32b59ac1ba3","createdAt":"2024-03-07 13:43:05.509194+00","name":"Dr. Karen Faherty","typeOfPlace":"Neuropsychology","invisible":false,"website":"https:\/\/redbankcounseling.com\/\r","phone":"7327479221","image":null,"reviews":"{}","streetAddress":"130 Maple Avenue","city":"Red Bank","zip":"07701","state":"NJ","long":"-74.069692","lat":"40.346303"},{"id":"a0d846bb-2054-410b-a299-de8c6ad1f56f","createdAt":"2024-03-07 13:43:05.570039+00","name":"Universal Institute","typeOfPlace":"Rehab","invisible":false,"website":"https:\/\/uirehabnj.com\/\r","phone":"9739928181","image":null,"reviews":"{}","streetAddress":"1 Cooper Avenue","city":"Long Branch","zip":"07740","state":"NJ","long":"-73.977964","lat":"40.309353"},{"id":"2bb8d9aa-da27-406d-92a0-022478a894db","createdAt":"2024-03-07 13:43:05.652185+00","name":"Neurobehavioral Rehab Associates","typeOfPlace":"Neuropsychology","invisible":false,"website":"https:\/\/www.neurorehabnj.net\/\r","phone":"7328369770","image":null,"reviews":"{}","streetAddress":"444 Neptune Blvd","city":"Neptune City","zip":"07753","state":"NJ","long":"-74.035489","lat":"40.218616"},{"id":"65d57b2b-264f-43d5-a85a-cf5a95980f83","createdAt":"2024-03-07 13:43:05.711845+00","name":"Synapse Neuro Rehab","typeOfPlace":"Rehab","invisible":false,"website":"https:\/\/synapseneurorehab.com\/\r","phone":"7324448631","image":null,"reviews":"{}","streetAddress":"776 Shrewsbury Avenue","city":"Tinton Falls","zip":"07724","state":"NJ","long":"-74.073388","lat":"40.321462"},{"id":"562cdd61-451e-4830-9678-b1dd1a2dd14a","createdAt":"2024-03-07 13:43:05.769566+00","name":"Hackencack Meridian Hospital","typeOfPlace":"Pediatric Neurology","invisible":false,"website":"https:\/\/www.hackensackmeridianhealth.org\/en\/\r","phone":"7327764551","image":null,"reviews":"{}","streetAddress":"27 South Cooks Bridge Road","city":"Jackson","zip":"08527","state":"NJ","long":"-74.288412","lat":"40.12175"},{"id":"72e1caa5-0ee6-4d5f-ac4e-2758160a0ab1","createdAt":"2024-03-07 13:43:05.866407+00","name":"Hackencack Meridian Hospital","typeOfPlace":"Neurology","invisible":false,"website":"https:\/\/www.hackensackmeridianhealth.org\/en\/\r","phone":"6099788870","image":null,"reviews":"{}","streetAddress":"53 Nautilus Dr","city":"Manahawkin","zip":"08050","state":"NJ","long":"-74.283054","lat":"39.719572"},{"id":"65b4bbbd-bcad-47e7-9cc4-bc58adb79b08","createdAt":"2024-03-07 13:43:05.952362+00","name":"Jersey Shore Neurology Associates","typeOfPlace":"Neurology","invisible":false,"website":"https:\/\/www.shoreneurology.com\/\r","phone":"7327752400","image":null,"reviews":"{}","streetAddress":"222 Jack Martin Boulevard","city":"Brick","zip":"08724","state":"NJ","long":"-74.12537","lat":"40.077124"},{"id":"3a4502a5-790b-4eca-96ce-cbbbd616f55c","createdAt":"2024-03-07 13:43:06.012892+00","name":"Dr. Vipul Lakhani","typeOfPlace":"Neuro-Opthalmology","invisible":false,"website":"https:\/\/www.sightmd.com\/our-doctors\/vipul-lakhani-md\/\r","phone":"7322444322","image":null,"reviews":"{}","streetAddress":"413 Lakehurst Rd","city":"Toms River","zip":"08755","state":"NJ","long":"-74.216233","lat":"39.959661"},{"id":"9b10ecfe-4419-4387-a654-1bb8fa79a6f3","createdAt":"2024-03-07 13:43:06.074516+00","name":"Low Vision of NJ","typeOfPlace":"Neuro-Optometry","invisible":false,"website":"https:\/\/www.lowvisionnj.com\/\r","phone":"7322793268","image":null,"reviews":"{}","streetAddress":"815 NJ-37","city":"Toms River","zip":"08755","state":"NJ","long":"-74.237384","lat":"39.970115"},{"id":"7370e1e7-9b31-4b31-ba76-93de3b09ce3a","createdAt":"2024-03-07 13:43:06.185244+00","name":"Bancroft","typeOfPlace":"Rehab","invisible":false,"website":"https:\/\/www.bancroft.org\/\r","phone":"8442342389","image":null,"reviews":"{}","streetAddress":"1433 Hooper Avenue","city":"Toms River","zip":"08753","state":"NJ","long":"-74.172332","lat":"39.99373"},{"id":"6fbf71cc-37d6-484c-b08b-4d9d60b54978","createdAt":"2024-03-07 13:43:06.280088+00","name":"Bancroft","typeOfPlace":"Rehab","invisible":false,"website":"https:\/\/www.bancroft.org\/\r","phone":"8442342389","image":null,"reviews":"{}","streetAddress":"1200 Route 70 W","city":"Brick","zip":"08724","state":"NJ","long":"-74.111945","lat":"40.082836"},{"id":"af8ade27-4b16-4195-bccd-1ff77f0f3450","createdAt":"2024-03-07 13:43:06.303582+00","name":"Neurobehavioral Rehab Associates","typeOfPlace":"Neuropsychology","invisible":false,"website":"https:\/\/www.neurorehabnj.net\/\r","phone":"7328369770","image":null,"reviews":"{}","streetAddress":"1541 NJ-88 B","city":"Brick","zip":"08724","state":"NJ","long":"-74.141855","lat":"40.080443"},{"id":"339e49fe-b7b5-4191-9b62-eba61e25c5b4","createdAt":"2024-03-07 13:43:06.364778+00","name":"Colts Neck Neurology Dr. Cristian Enescu","typeOfPlace":"Neurology","invisible":false,"website":"https:\/\/www.rwjbh.org\/doctors\/cristian-enescu-md\/\r","phone":"7325576330","image":null,"reviews":"{}","streetAddress":"9 Hospital Dr","city":"Toms River","zip":"08755","state":"NJ","long":"-74.216153","lat":"39.962318"},{"id":"6cb74d29-8f2d-48ae-9601-34e80404aa67","createdAt":"2024-03-07 13:43:06.424989+00","name":"Synapse Neuro Rehab","typeOfPlace":"Rehab","invisible":false,"website":"https:\/\/synapseneurorehab.com\/\r","phone":"7324448631","image":null,"reviews":"{}","streetAddress":"3222 Bridge Avenue","city":"Point Pleasant","zip":"08742","state":"NJ","long":"-74.087816","lat":"40.077841"},{"id":"08c81d6b-0521-4cff-96ab-2699ebc1ce9f","createdAt":"2024-03-07 13:43:06.484975+00","name":"ReMed","typeOfPlace":"Supported Living","invisible":false,"website":"https:\/\/remedservices.com\/\r","phone":"7326408868","image":null,"reviews":"{}","streetAddress":"8 Persimmon Court","city":"East Brunswick","zip":"08816","state":"NJ","long":"-74.4319233","lat":"40.4330383"},{"id":"4a178a77-2448-4254-9610-a2f388317916","createdAt":"2024-03-07 13:43:06.559282+00","name":"Bancroft","typeOfPlace":"Vocational Rehab","invisible":false,"website":"https:\/\/www.bancroft.org\/","phone":"8442348387","image":null,"reviews":"{}","streetAddress":"666 Plainsboro Rd","city":"Plainsboro","zip":"08536","state":"NJ","long":"-74.574277","lat":"40.327103"},{"id":"97f21327-5bf4-454e-815c-3717e58e6bfa","createdAt":"2024-03-07 13:43:06.573764+00","name":"Neurorestorative","typeOfPlace":"Supported Living","invisible":false,"website":"https:\/\/providers.atlanticare.org\/provider\/Mark+J+Chelder\/1162018\r","phone":"8007436802","image":null,"reviews":"{}","streetAddress":"115A Leeds Point Road","city":"Galloway","zip":"08215","state":"NJ","long":"-74.4501011","lat":"39.4799428"},{"id":"0185bc56-acd7-459d-98a5-cb1e27fc4504","createdAt":"2024-03-07 13:43:06.632649+00","name":"Neurorestorative","typeOfPlace":"Supported Living","invisible":false,"website":"https:\/\/neurorestorative.com\/\r","phone":"8007436802","image":null,"reviews":"{}","streetAddress":"235 W White Horse Pike","city":"Egg Harbor City","zip":"08215","state":"NJ","long":"-74.6511183","lat":"39.5307617"},{"id":"b5a2343c-3327-4db1-aa65-2c1932cf3939","createdAt":"2024-03-07 13:43:06.692384+00","name":"Neurorestorative","typeOfPlace":"Supported Living","invisible":false,"website":"https:\/\/neurorestorative.com\/\r","phone":"8007436802","image":null,"reviews":"{}","streetAddress":"300 Rosemarie Drive","city":"Egg Harbor Township","zip":"08234","state":"NJ","long":"-74.5985877","lat":"39.3429505"},{"id":"5da4a4c6-7159-482e-9ba0-67a322bb9498","createdAt":"2024-03-07 13:43:06.706774+00","name":"Neurorestorative","typeOfPlace":"Supported Living","invisible":false,"website":"https:\/\/neurorestorative.com\/\r","phone":"8007436802","image":null,"reviews":"{}","streetAddress":"1932 Cologne Avenue","city":"Mays Landing","zip":"08330","state":"NJ","long":"-74.663892","lat":"39.455218"},{"id":"ded887ad-4dba-4888-bb96-6f3018e8367d","createdAt":"2024-03-07 13:43:06.771305+00","name":"Neurorestorative","typeOfPlace":"Supported Living","invisible":false,"website":"https:\/\/neurorestorative.com\/\r","phone":"8007436802","image":null,"reviews":"{}","streetAddress":"39 South Laurel Drive","city":"Somers Point","zip":"08244","state":"NJ","long":"-74.6139275","lat":"39.3211389"},{"id":"3435e1a9-76a5-4106-8c8f-c5e9526d0f3a","createdAt":"2024-03-07 13:43:06.829917+00","name":"Neurorestorative","typeOfPlace":"Supported Living","invisible":false,"website":"https:\/\/neurorestorative.com\/\r","phone":"8007436802","image":null,"reviews":"{}","streetAddress":"8008 US-130","city":"Delran","zip":"08075","state":"NJ","long":"-74.938194","lat":"40.023574"},{"id":"1831888a-da29-4dcc-a14a-9b8893d73168","createdAt":"2024-03-07 13:43:06.888404+00","name":"Neurorestorative","typeOfPlace":"Supported Living","invisible":false,"website":"https:\/\/neurorestorative.com\/\r","phone":"8007436802","image":null,"reviews":"{}","streetAddress":"205 Paddock Way","city":"Delran","zip":"08075","state":"NJ","long":"-74.962001","lat":"40.008144"},{"id":"b57a0ced-50de-4576-bcf8-bbd9f117e850","createdAt":"2024-03-07 13:43:06.964781+00","name":"Neurorestorative","typeOfPlace":"Supported Living","invisible":false,"website":"https:\/\/neurorestorative.com\/\r","phone":"8007436802","image":null,"reviews":"{}","streetAddress":"5 Independence Drive","city":"Bordentown","zip":"08505","state":"NJ","long":"-74.697764","lat":"40.140227"},{"id":"6f30fa86-856d-4da4-9c78-47892d9bbcf5","createdAt":"2024-03-07 13:43:07.02276+00","name":"Neurorestorative","typeOfPlace":"Supported Living","invisible":false,"website":"https:\/\/neurorestorative.com\/\r","phone":"8007436802","image":null,"reviews":"{}","streetAddress":"617 Devon Avenue","city":"Moorestown","zip":"08857","state":"NJ","long":"-74.9706727","lat":"39.9623673"},{"id":"41dbb776-0600-4928-b03a-78f46453afcc","createdAt":"2024-03-07 13:43:07.078436+00","name":"Neurorestorative","typeOfPlace":"Supported Living","invisible":false,"website":"https:\/\/neurorestorative.com\/\r","phone":"8007436802","image":null,"reviews":"{}","streetAddress":"1501 Larchmont Place","city":"Mount Laurel","zip":"08054","state":"NJ","long":"-74.8804648","lat":"39.9757167"},{"id":"21297a4f-aa74-4bb5-8f56-8fe5900d1335","createdAt":"2024-03-07 13:43:07.136668+00","name":"Neurorestorative","typeOfPlace":"Supported Living","invisible":false,"website":"https:\/\/neurorestorative.com\/\r","phone":"8007436802","image":null,"reviews":"{}","streetAddress":"214 Evans Court","city":"Mount Laurel","zip":"08054","state":"NJ","long":"-74.8815842","lat":"39.9727535"},{"id":"19d92616-2534-4683-8875-f3052be1e8e7","createdAt":"2024-03-07 13:43:07.197638+00","name":"Neurorestorative","typeOfPlace":"Supported Living","invisible":false,"website":"https:\/\/neurorestorative.com\/\r","phone":"8007436802","image":null,"reviews":"{}","streetAddress":"806 Crystal Avenue","city":"Southhampton","zip":"08088","state":"NJ","long":"-74.723144","lat":"39.977039"},{"id":"e7812276-a8e9-4b21-9bbf-17a013d3530f","createdAt":"2024-03-07 13:43:07.339944+00","name":"Neurobehavioral Wellness Center","typeOfPlace":"Pediatric Behavioral Health","invisible":false,"website":"https:\/\/www.neurobehavioralwellnesscenter.com\/\r","phone":"8569756279","image":null,"reviews":"{}","streetAddress":"1630 Route 322","city":"Woolwich","zip":"08085","state":"NJ","long":"-75.302722","lat":"39.760466"},{"id":"a07fc8b4-7e9b-41fc-97bf-5a78af8e1b72","createdAt":"2024-03-07 13:43:07.397812+00","name":"Universal Institute","typeOfPlace":"Supported Living","invisible":false,"website":"https:\/\/uirehabnj.com\/\r","phone":"9739928181","image":null,"reviews":"{}","streetAddress":"1 Cooper Avenue","city":"Long Branch","zip":"07740","state":"NJ","long":"-73.977964","lat":"40.309353"},{"id":"6e540b94-b886-47e5-bb40-c62c93facbd4","createdAt":"2024-03-07 13:43:07.45846+00","name":"Bancroft","typeOfPlace":"Supported Living","invisible":false,"website":"https:\/\/www.bancroft.org\/\r","phone":"8442342389","image":null,"reviews":"{}","streetAddress":"1433 Hooper Avenue","city":"Toms River","zip":"08753","state":"NJ","long":"-74.172332","lat":"39.99373"},{"id":"7faeae0d-6e23-4a5a-952b-67bfa8388a60","createdAt":"2024-03-07 13:43:07.519977+00","name":"Bancroft","typeOfPlace":"Supported Living","invisible":false,"website":"https:\/\/www.bancroft.org\/","phone":"8442342389","image":null,"reviews":"{}","streetAddress":"1200 Route 70 W","city":"Brick","zip":"08724","state":"NJ","long":"-74.111945","lat":"40.082836"}]